{"type":"FeatureCollection","features":[{"type":"Feature","geometry":{"type":"Point","coordinates":[106.307958,20.9351885,0]},"properties":{"name":"Bệnh viện Đa khoa tỉnh Hải Dương","description":"BacSi: 35<br>mô tả: ","BacSi":"35.0","mô tả":null}},{"type":"Feature","geometry":{"type":"Point","coordinates":[106.3177141,20.9326567,0]},"properties":{"name":"Bệnh viện Đa khoa Thành phố Hải Dương","description":"BacSi: 25<br>mô tả: ","BacSi":"25.0","mô tả":null}},{"type":"Feature","geometry":{"type":"Point","coordinates":[106.3401434,20.930571,0]},"properties":{"name":"Bệnh Viện Đa Khoa Hòa Bình","description":"BacSi: 41<br>mô tả: ","BacSi":"41.0","mô tả":null}},{"type":"Feature","geometry":{"type":"Point","coordinates":[106.3074921,20.9366755,0]},"properties":{"name":"Bệnh Viện Phụ Sản Hải Dương","description":"BacSi: 36<br>mô tả: ","BacSi":"36.0","mô tả":null}},{"type":"Feature","geometry":{"type":"Point","coordinates":[106.3034588,20.9355938,0]},"properties":{"name":"Trung Tâm Y Tế Thành Phố Hải Dương","description":"BacSi: 37<br>mô tả: ","BacSi":"37.0","mô tả":null}},{"type":"Feature","geometry":{"type":"Point","coordinates":[106.3182404,20.9328647,0]},"properties":{"name":"Trung tâm y tế - Tp Hải Dương","description":"BacSi: 22<br>mô tả: ","BacSi":"22.0","mô tả":null}},{"type":"Feature","geometry":{"type":"Point","coordinates":[106.3050038,20.936025,0]},"properties":{"name":"Bệnh viện Đại học Kỹ thuật Y tế Hải Dương","description":"BacSi: 34<br>mô tả: ","BacSi":"34.0","mô tả":null}},{"type":"Feature","geometry":{"type":"Point","coordinates":[106.3330006,20.9382543,0]},"properties":{"name":"Trung Tâm Y Tế Dự Phòng Thành Phố Hải Dương","description":"BacSi: 72<br>mô tả: ","BacSi":"72.0","mô tả":null}},{"type":"Feature","geometry":{"type":"Point","coordinates":[106.2822248,20.9244558,0]},"properties":{"name":"Trạm y tế phường Tứ Minh","description":"BacSi: 15<br>mô tả: ","BacSi":"15.0","mô tả":null}},{"type":"Feature","geometry":{"type":"Point","coordinates":[106.3306533,20.9199861,0]},"properties":{"name":"Trạm Y Tế Phường Hải Tân","description":"BacSi: 13<br>mô tả: ","BacSi":"13.0","mô tả":null}},{"type":"Feature","geometry":{"type":"Point","coordinates":[106.3362321,20.9456244,0]},"properties":{"name":"Trung Tâm Y Tế Dự Phòng Tỉnh","description":"BacSi: 7<br>mô tả: ","BacSi":"7.0","mô tả":null}},{"type":"Feature","geometry":{"type":"Point","coordinates":[106.3332507,20.9235277,0]},"properties":{"name":"Trạm Y Tế Phường Hải Tân","description":"BacSi: 15<br>mô tả: ","BacSi":"15.0","mô tả":null}},{"type":"Feature","geometry":{"type":"Point","coordinates":[106.3143081,20.9236385,0]},"properties":{"name":"Trạm y tế phường Tân Bình","description":"BacSi: 17<br>mô tả: ","BacSi":"17.0","mô tả":null}},{"type":"Feature","geometry":{"type":"Point","coordinates":[106.3056451,20.9073614,0]},"properties":{"name":"Trạm y tế phường Thạch Khôi","description":"BacSi: 14<br>mô tả: ","BacSi":"14.0","mô tả":null}},{"type":"Feature","geometry":{"type":"Point","coordinates":[106.3079228,20.9303483,0]},"properties":{"name":"Trạm Y tế phường Thanh Bình","description":"BacSi: 19<br>mô tả: ","BacSi":"19.0","mô tả":null}},{"type":"Feature","geometry":{"type":"Point","coordinates":[106.3448504,20.9488536,0]},"properties":{"name":"Trạm Y Tế Phường Nhị Châu","description":"BacSi: 12<br>mô tả: ","BacSi":"12.0","mô tả":null}},{"type":"Feature","geometry":{"type":"Point","coordinates":[106.320169,20.9495468,0]},"properties":{"name":"Trạm Y tế phường Cẩm Thượng","description":"BacSi: 23<br>mô tả: ","BacSi":"23.0","mô tả":null}},{"type":"Feature","geometry":{"type":"Point","coordinates":[106.3241615,20.9376279,0]},"properties":{"name":"Trạm Y Tế Phường Phạm Ngũ Lão","description":"BacSi: 18<br>mô tả: ","BacSi":"18.0","mô tả":null}},{"type":"Feature","geometry":{"type":"Point","coordinates":[106.3283966,20.9366801,0]},"properties":{"name":"Trạm Y Tế Phường Trần Phú","description":"BacSi: 14<br>mô tả: ","BacSi":"14.0","mô tả":null}},{"type":"Feature","geometry":{"type":"Point","coordinates":[106.3172316,20.9646472,0]},"properties":{"name":"Trạm Y Tế Xã Thượng Đạt Tp Hải Dương","description":"BacSi: 12<br>mô tả: ","BacSi":"12.0","mô tả":null}}]}